{"version": 0.6, "generator": "Overpass API 0.7.62.5 1bd436f1", "osm3s": {"timestamp_osm_base": "2025-05-29T12:29:05Z", "copyright": "The data included in this document is from www.openstreetmap.org. The data is made available under ODbL."}, "elements": [{"type": "node", "id": 29944865, "lat": 32.08228, "lon": 34.7710877, "tags": {"highway": "traffic_signals"}}, {"type": "node", "id": 340005676, "lat": 32.0848006, "lon": 34.7724352, "tags": {"crossing": "marked", "crossing:markings": "yes", "highway": "crossing"}}, {"type": "node", "id": 340007497, "lat": 32.0829648, "lon": 34.7714861}, {"type": "node", "id": 344929212, "lat": 32.0848932, "lon": 34.7724832, "tags": {"crossing": "marked", "crossing:markings": "yes", "highway": "crossing"}}, {"type": "node", "id": 412399663, "lat": 32.0840255, "lon": 34.7712031}, {"type": "node", "id": 412399688, "lat": 32.0837399, "lon": 34.7719045}, {"type": "node", "id": 454915167, "lat": 32.0843789, "lon": 34.7722254}, {"type": "node", "id": 2469848157, "lat": 32.0823687, "lon": 34.7711059}, {"type": "node", "id": 2469848159, "lat": 32.0837754, "lon": 34.771816}, {"type": "node", "id": 2469848160, "lat": 32.0840701, "lon": 34.7719563}, {"type": "node", "id": 2469848162, "lat": 32.0848234, "lon": 34.7723509, "tags": {"highway": "traffic_signals", "traffic_signals": "signal"}}, {"type": "node", "id": 2469848166, "lat": 32.0849152, "lon": 34.7723903, "tags": {"crossing": "traffic_signals", "highway": "crossing"}}, {"type": "node", "id": 4922283687, "lat": 32.0838402, "lon": 34.7720398, "tags": {"amenity": "cafe", "name": "Rochale", "name:en": "Rochale"}}, {"type": "node", "id": 5327394821, "lat": 32.08376, "lon": 34.7720109, "tags": {"amenity": "restaurant", "internet_access": "wlan", "name:en": "Agadir Burger"}}, {"type": "node", "id": 6106463400, "lat": 32.0837268, "lon": 34.7716795, "tags": {"addr:city": "Tel Aviv", "addr:housenumber": "99", "addr:postcode": "63401", "addr:street": "\u05d1\u05df \u05d9\u05d4\u05d5\u05d3\u05d4", "alt_name": "\u05d1\u05e0\u05e7 \u05d4\u05e4\u05d5\u05e2\u05dc\u05d9\u05dd \u05d9\u05e9\u05d5\u05e8\u05d5\u05df", "alt_name:en": "Bank Hapoalim Yeshurun", "amenity": "bank", "atm": "yes", "brand": "\u05d1\u05e0\u05e7 \u05d4\u05e4\u05d5\u05e2\u05dc\u05d9\u05dd", "brand:en": "Bank Hapoalim", "brand:he": "\u05d1\u05e0\u05e7 \u05d4\u05e4\u05d5\u05e2\u05dc\u05d9\u05dd", "brand:wikidata": "Q2666775", "contact:facebook": "https://www.facebook.com/BankHapoalimSocial", "contact:twitter": "https://twitter.com/PoaliMarkeTweet", "contact:youtube": "https://www.youtube.com/user/BankHapoalim", "fax": "+972 3 522 8138", "name": "\u05d1\u05e0\u05e7 \u05d4\u05e4\u05d5\u05e2\u05dc\u05d9\u05dd", "name:en": "Bank Hapoalim", "name:he": "\u05d1\u05e0\u05e7 \u05d4\u05e4\u05d5\u05e2\u05dc\u05d9\u05dd", "opening_hours": "Su, Tu, Th 09:00-14:30; Mo, We 09:00-13:00, 16:00-17:30", "website": "https://www.bankhapoalim.co.il/"}}, {"type": "node", "id": 8644790904, "lat": 32.0823428, "lon": 34.7711749}, {"type": "node", "id": 9875398907, "lat": 32.0837581, "lon": 34.7718579}, {"type": "node", "id": 9924712884, "lat": 32.0838028, "lon": 34.7717489}, {"type": "node", "id": 12771027382, "lat": 32.0849968, "lon": 34.7725004, "tags": {"highway": "traffic_signals", "traffic_signals": "signal"}}, {"type": "way", "id": 35159942, "nodes": [412399663, 9924712884], "tags": {"highway": "residential", "name": "\u05d9\u05e9\u05d5\u05e8\u05d5\u05df", "name:en": "Yeshurun", "name:en1": "Yeshooroon", "name:he": "\u05d9\u05e9\u05d5\u05e8\u05d5\u05df"}}, {"type": "way", "id": 1051911019, "nodes": [29944865, 2469848157, 2469848159, 2469848160, 2469848162, 2469848166, 12771027382], "tags": {"foot": "yes", "highway": "tertiary", "int_name": "Ben Yehuda", "name": "\u05d1\u05df \u05d9\u05d4\u05d5\u05d3\u05d4", "name:ar": "\u0628\u0646 \u064a\u0647\u0648\u062f\u0627", "name:en": "Ben Yehuda", "name:he": "\u05d1\u05df \u05d9\u05d4\u05d5\u05d3\u05d4", "oneway": "yes", "psv": "opposite_lane", "wikidata": "Q7017920"}}, {"type": "way", "id": 1051911020, "nodes": [29944865, 8644790904, 340007497, 412399688, 454915167, 340005676, 344929212, 12771027382], "tags": {"busway": "opposite_lane", "highway": "cycleway", "name": "\u05d1\u05df \u05d9\u05d4\u05d5\u05d3\u05d4", "name:ar": "\u0628\u0646 \u064a\u0647\u0648\u062f\u0627", "name:en": "Ben Yehuda", "name:en1": "Eliezer Ben Yehuda", "name:he": "\u05d1\u05df \u05d9\u05d4\u05d5\u05d3\u05d4", "name:ru": "\u0411\u0435\u043d-\u0418\u0435\u0433\u0443\u0434\u0430", "oneway": "no", "oneway:bus": "yes", "oneway:taxi": "yes", "psv": "opposite_lane"}}, {"type": "way", "id": 1076976897, "nodes": [2469848159, 9875398907, 412399688], "tags": {"highway": "footway", "name": "\u05d9\u05e9\u05d5\u05e8\u05d5\u05df", "name:en": "Yeshurun", "name:en1": "Yeshooroon", "name:he": "\u05d9\u05e9\u05d5\u05e8\u05d5\u05df"}}, {"type": "way", "id": 1082944561, "nodes": [9924712884, 2469848159], "tags": {"highway": "construction", "name": "\u05d9\u05e9\u05d5\u05e8\u05d5\u05df", "name:en": "Yeshurun", "name:en1": "Yeshooroon", "name:he": "\u05d9\u05e9\u05d5\u05e8\u05d5\u05df"}}]}